{"geocoding":{"version":"0.2","attribution":"https://search.mapzen.com/v1/attribution","query":{"text":"pennsylvania","parsed_text":{"state":"PA"},"tokens":["pennsylvania"],"size":10,"sources":["openaddresses"],"private":false},"engine":{"name":"Pelias","author":"Mapzen","version":"1.0"},"timestamp":1483999981344},"type":"FeatureCollection","features":[{"type":"Feature","geometry":{"type":"Point","coordinates":[-74.903515,40.089612]},"properties":{"id":"us/pa/bucks:d0713c98d1d941ea","gid":"openaddresses:address:us/pa/bucks:d0713c98d1d941ea","layer":"address","source":"openaddresses","source_id":"us/pa/bucks:d0713c98d1d941ea","name":"912 Pennsylvania","housenumber":"912","street":"Pennsylvania","accuracy":"point","country":"United States","country_gid":"whosonfirst:country:85633793","country_a":"USA","region":"Pennsylvania","region_gid":"whosonfirst:region:85688481","region_a":"PA","county":"Bucks County","county_gid":"whosonfirst:county:102080987","localadmin":"Bristol","localadmin_gid":"whosonfirst:localadmin:404484801","locality":"Croydon","locality_gid":"whosonfirst:locality:101719121","neighbourhood":"Croydon Heights","neighbourhood_gid":"whosonfirst:neighbourhood:420536899","label":"912 Pennsylvania, Croydon, PA, USA"}},{"type":"Feature","geometry":{"type":"Point","coordinates":[-74.90221,40.090544]},"properties":{"id":"us/pa/bucks:2ade01267f68afe1","gid":"openaddresses:address:us/pa/bucks:2ade01267f68afe1","layer":"address","source":"openaddresses","source_id":"us/pa/bucks:2ade01267f68afe1","name":"1105 Pennsylvania","housenumber":"1105","street":"Pennsylvania","accuracy":"point","country":"United States","country_gid":"whosonfirst:country:85633793","country_a":"USA","region":"Pennsylvania","region_gid":"whosonfirst:region:85688481","region_a":"PA","county":"Bucks County","county_gid":"whosonfirst:county:102080987","localadmin":"Bristol","localadmin_gid":"whosonfirst:localadmin:404484801","locality":"Croydon","locality_gid":"whosonfirst:locality:101719121","neighbourhood":"Croydon Heights","neighbourhood_gid":"whosonfirst:neighbourhood:420536899","label":"1105 Pennsylvania, Croydon, PA, USA"}},{"type":"Feature","geometry":{"type":"Point","coordinates":[-75.215419,40.869212]},"properties":{"id":"us/pa/northampton:1454eb0a6f52a737","gid":"openaddresses:address:us/pa/northampton:1454eb0a6f52a737","layer":"address","source":"openaddresses","source_id":"us/pa/northampton:1454eb0a6f52a737","name":"800 A Pennsylvania Ave","housenumber":"800","street":"A Pennsylvania Ave","accuracy":"point","country":"United States","country_gid":"whosonfirst:country:85633793","country_a":"USA","region":"Pennsylvania","region_gid":"whosonfirst:region:85688481","region_a":"PA","county":"Northampton County","county_gid":"whosonfirst:county:102081395","localadmin":"Bangor","localadmin_gid":"whosonfirst:localadmin:404485985","locality":"Bangor","locality_gid":"whosonfirst:locality:101717905","label":"800 A Pennsylvania Ave, Bangor, PA, USA"}},{"type":"Feature","geometry":{"type":"Point","coordinates":[-75.180473,39.968663]},"properties":{"id":"us/pa/philadelphia:3f3327852a9995cb","gid":"openaddresses:address:us/pa/philadelphia:3f3327852a9995cb","layer":"address","source":"openaddresses","source_id":"us/pa/philadelphia:3f3327852a9995cb","name":"2601 Pennsylvania Ave","housenumber":"2601","street":"Pennsylvania Ave","postalcode":"19130","accuracy":"point","country":"United States","country_gid":"whosonfirst:country:85633793","country_a":"USA","region":"Pennsylvania","region_gid":"whosonfirst:region:85688481","region_a":"PA","county":"Philadelphia County","county_gid":"whosonfirst:county:102081353","localadmin":"Philadelphia","localadmin_gid":"whosonfirst:localadmin:404483701","locality":"Philadelphia","locality_gid":"whosonfirst:locality:101718083","neighbourhood":"Fairmount","neighbourhood_gid":"whosonfirst:neighbourhood:85818625","label":"2601 Pennsylvania Ave, Philadelphia, PA, USA"}},{"type":"Feature","geometry":{"type":"Point","coordinates":[-75.177842,39.966605]},"properties":{"id":"us/pa/philadelphia:6cee9ba148f3e296","gid":"openaddresses:address:us/pa/philadelphia:6cee9ba148f3e296","layer":"address","source":"openaddresses","source_id":"us/pa/philadelphia:6cee9ba148f3e296","name":"2401 Pennsylvania Ave","housenumber":"2401","street":"Pennsylvania Ave","postalcode":"19130","accuracy":"point","country":"United States","country_gid":"whosonfirst:country:85633793","country_a":"USA","region":"Pennsylvania","region_gid":"whosonfirst:region:85688481","region_a":"PA","county":"Philadelphia County","county_gid":"whosonfirst:county:102081353","localadmin":"Philadelphia","localadmin_gid":"whosonfirst:localadmin:404483701","locality":"Philadelphia","locality_gid":"whosonfirst:locality:101718083","neighbourhood":"Spring Garden","neighbourhood_gid":"whosonfirst:neighbourhood:420539525","label":"2401 Pennsylvania Ave, Philadelphia, PA, USA"}},{"type":"Feature","geometry":{"type":"Point","coordinates":[-79.02596,39.816736]},"properties":{"id":"us/pa/somerset:bd276974555f32a5","gid":"openaddresses:address:us/pa/somerset:bd276974555f32a5","layer":"address","source":"openaddresses","source_id":"us/pa/somerset:bd276974555f32a5","name":"307 Pennsylvania St","housenumber":"307","street":"Pennsylvania St","accuracy":"point","country":"United States","country_gid":"whosonfirst:country:85633793","country_a":"USA","region":"Pennsylvania","region_gid":"whosonfirst:region:85688481","region_a":"PA","county":"Somerset County","county_gid":"whosonfirst:county:102081361","localadmin":"Meyersdale","localadmin_gid":"whosonfirst:localadmin:404484019","locality":"Meyersdale","locality_gid":"whosonfirst:locality:101717935","label":"307 Pennsylvania St, Meyersdale, PA, USA"}},{"type":"Feature","geometry":{"type":"Point","coordinates":[-79.021023,39.817922]},"properties":{"id":"us/pa/somerset:39ac7592ee332af7","gid":"openaddresses:address:us/pa/somerset:39ac7592ee332af7","layer":"address","source":"openaddresses","source_id":"us/pa/somerset:39ac7592ee332af7","name":"617 Pennsylvania St","housenumber":"617","street":"Pennsylvania St","accuracy":"point","country":"United States","country_gid":"whosonfirst:country:85633793","country_a":"USA","region":"Pennsylvania","region_gid":"whosonfirst:region:85688481","region_a":"PA","county":"Somerset County","county_gid":"whosonfirst:county:102081361","localadmin":"Meyersdale","localadmin_gid":"whosonfirst:localadmin:404484019","locality":"Meyersdale","locality_gid":"whosonfirst:locality:101717935","label":"617 Pennsylvania St, Meyersdale, PA, USA"}},{"type":"Feature","geometry":{"type":"Point","coordinates":[-79.70637,41.382779]},"properties":{"id":"us/pa/venango:98ecb830a9fd2c37","gid":"openaddresses:address:us/pa/venango:98ecb830a9fd2c37","layer":"address","source":"openaddresses","source_id":"us/pa/venango:98ecb830a9fd2c37","name":"146 Pennsylvania Ave","housenumber":"146","street":"Pennsylvania Ave","accuracy":"point","country":"United States","country_gid":"whosonfirst:country:85633793","country_a":"USA","region":"Pennsylvania","region_gid":"whosonfirst:region:85688481","region_a":"PA","county":"Venango County","county_gid":"whosonfirst:county:102081279","localadmin":"Cranberry","localadmin_gid":"whosonfirst:localadmin:404487533","locality":"Seneca","locality_gid":"whosonfirst:locality:101719523","neighbourhood":"Woodland Heights","neighbourhood_gid":"whosonfirst:neighbourhood:85858721","label":"146 Pennsylvania Ave, Seneca, PA, USA"}},{"type":"Feature","geometry":{"type":"Point","coordinates":[-75.176758,39.96507]},"properties":{"id":"us/pa/philadelphia:2798d4a03e1a173e","gid":"openaddresses:address:us/pa/philadelphia:2798d4a03e1a173e","layer":"address","source":"openaddresses","source_id":"us/pa/philadelphia:2798d4a03e1a173e","name":"2333 Pennsylvania Ave","housenumber":"2333","street":"Pennsylvania Ave","postalcode":"19130","accuracy":"point","country":"United States","country_gid":"whosonfirst:country:85633793","country_a":"USA","region":"Pennsylvania","region_gid":"whosonfirst:region:85688481","region_a":"PA","county":"Philadelphia County","county_gid":"whosonfirst:county:102081353","localadmin":"Philadelphia","localadmin_gid":"whosonfirst:localadmin:404483701","locality":"Philadelphia","locality_gid":"whosonfirst:locality:101718083","neighbourhood":"Ben Franklin Parkway - Kelly Drive","neighbourhood_gid":"whosonfirst:neighbourhood:85893321","label":"2333 Pennsylvania Ave, Philadelphia, PA, USA"}}],"bbox":[-79.70637,39.816736,-74.90221,41.382779]}